[
  {"name": "Sydney", "lat": -33.8688, "lng": 151.2093},
  {"name": "Melbourne", "lat": -37.8136, "lng": 144.9631},
  {"name": "Brisbane", "lat": -27.4698, "lng": 153.0251},
  {"name": "Perth", "lat": -31.9505, "lng": 115.8605},
  {"name": "Adelaide", "lat": -34.9285, "lng": 138.6007},
  {"name": "Canberra", "lat": -35.2809, "lng": 149.1300},
  {"name": "Hobart", "lat": -42.8821, "lng": 147.3272},
  {"name": "Darwin", "lat": -12.4634, "lng": 130.8456},
  {"name": "Gold Coast", "lat": -28.0167, "lng": 153.4000},
  {"name": "Newcastle", "lat": -32.9283, "lng": 151.7817},
  {"name": "Wollongong", "lat": -34.4278, "lng": 150.8931},
  {"name": "Geelong", "lat": -38.1499, "lng": 144.3617},
  {"name": "Sunshine Coast", "lat": -26.6500, "lng": 153.0667},
  {"name": "Townsville", "lat": -19.2590, "lng": 146.8169},
  {"name": "Cairns", "lat": -16.9186, "lng": 145.7781},
  {"name": "Bunbury", "lat": -33.3256, "lng": 115.6396},
  {"name": "Toowoomba", "lat": -27.5598, "lng": 151.9507},
  {"name": "Ballarat", "lat": -37.5622, "lng": 143.8503},
  {"name": "Bendigo", "lat": -36.7570, "lng": 144.2794},
  {"name": "Albury", "lat": -36.0737, "lng": 146.9135},
  {"name": "Launceston", "lat": -41.4332, "lng": 147.1441},
  {"name": "Mackay", "lat": -21.1411, "lng": 149.1861},
  {"name": "Coffs Harbour", "lat": -30.2986, "lng": 153.1094},
  {"name": "Port Macquarie", "lat": -31.4300, "lng": 152.9081},
  {"name": "Tamworth", "lat": -31.0927, "lng": 150.9320},
  {"name": "Wagga Wagga", "lat": -35.1147, "lng": 147.3663},
  {"name": "Shepparton", "lat": -36.3792, "lng": 145.4001},
  {"name": "Dubbo", "lat": -32.2569, "lng": 148.6011},
  {"name": "Alice Springs", "lat": -23.6980, "lng": 133.8807},
  {"name": "Mount Isa City", "lat": -20.7256, "lng": 139.4927},
  {"name": "Broken Hill", "lat": -31.9539, "lng": 141.4539},
  {"name": "Broome", "lat": -17.9614, "lng": 122.2359},
  {"name": "Kalgoorlie", "lat": -30.7489, "lng": 121.4658},
  {"name": "Geraldton", "lat": -28.7797, "lng": 114.6144},
  {"name": "Albany", "lat": -35.0228, "lng": 117.8814},
  {"name": "Port Hedland", "lat": -20.3107, "lng": 118.5878},
  {"name": "Karratha", "lat": -20.7376, "lng": 116.8419},
  {"name": "Coober Pedy", "lat": -29.0139, "lng": 134.7533},
  {"name": "Katherine", "lat": -14.4650, "lng": 132.2635},
  {"name": "Mount Gambier", "lat": -37.8284, "lng": 140.7804},
  {"name": "Port Augusta", "lat": -32.4960, "lng": 137.7656},
  {"name": "Esperance", "lat": -33.8613, "lng": 121.8914},
  {"name": "Ceduna", "lat": -32.1264, "lng": 133.6841},
  {"name": "Cunnamulla", "lat": -28.0667, "lng": 145.6833},
  {"name": "Mildura", "lat": -34.2080, "lng": 142.1246},
  {"name": "Denmark", "lat": -34.96, "lng": 117.352},
  {"name": "Norseman", "lat": -32.197, "lng": 121.77},
  {"name": "Derby", "lat": -17.309, "lng": 123.63961},
  {"name": "Kununurra", "lat": -15.7761, "lng": 128.7433},
  {"name": "Port Douglas", "lat": -16.48, "lng": 145.463},
  {"name": "Hawker", "lat": -31.8906, "lng": 138.4239},
  {"name": "Port Lincoln", "lat": -34.7222, "lng": 135.8624},
  {"name": "Cooma", "lat": -36.2367, "lng": 149.1278},
  {"name": "Griffith", "lat": -34.2900, "lng": 146.0300},
  {"name": "Cobar", "lat": -31.5000, "lng": 145.8400},
  {"name": "Bourke", "lat": -30.0900, "lng": 145.9400},
  {"name": "Byron Bay", "lat": -28.6433, "lng": 153.6133},
  {"name": "Roma", "lat": -26.5744, "lng": 148.7892},
  {"name": "St George", "lat": -28.0417, "lng": 148.5833},
  {"name": "Charleville", "lat": -26.4000, "lng": 146.2400},
  {"name": "Emerald", "lat": -23.5200, "lng": 148.1600},
  {"name": "Birdsville", "lat": -25.9000, "lng": 139.3500},
  {"name": "Lightning Ridge", "lat": -29.4300, "lng": 147.9800},
  {"name": "Devonport", "lat": -41.1775, "lng": 146.3452},
  {"name": "Exmouth", "lat": -21.9313, "lng": 114.1295}
]