[
  {"name": "Tripoli", "lat": 32.8872, "lng": 13.1913},
  {"name": "Benghazi", "lat": 32.1167, "lng": 20.0667},
  {"name": "Misrata", "lat": 32.3754, "lng": 15.0925},
  {"name": "Bayda", "lat": 32.7628, "lng": 21.755},
  {"name": "Zawiya", "lat": 32.7522, "lng": 12.7278},
  {"name": "Zliten", "lat": 32.4678, "lng": 14.5683},
  {"name": "Tobruk", "lat": 32.0754, "lng": 23.9537},
  {"name": "Ajdabiya", "lat": 30.7554, "lng": 20.2263},
  {"name": "Derna", "lat": 32.767, "lng": 22.6367},
  {"name": "Sabha", "lat": 27.0377, "lng": 14.4283}
]