[
  {"name": "Skopje", "lat": 41.9981, "lng": 21.4254},
  {"name": "Bitola", "lat": 41.0297, "lng": 21.3292},
  {"name": "Kumanovo", "lat": 42.1322, "lng": 21.7144},
  {"name": "Prilep", "lat": 41.3464, "lng": 21.5542},
  {"name": "Tetovo", "lat": 42.0106, "lng": 20.9714},
  {"name": "Veles", "lat": 41.7165, "lng": 21.7723},
  {"name": "Stip", "lat": 41.7456, "lng": 22.1958},
  {"name": "Ohrid", "lat": 41.1172, "lng": 20.8016},
  {"name": "Gostivar", "lat": 41.8, "lng": 20.9167},
  {"name": "Strumica", "lat": 41.4378, "lng": 22.6428}
]