[
  {"name": "Nouakchott", "lat": 18.0735, "lng": -15.9582},
  {"name": "Nouadhibou", "lat": 20.9409, "lng": -17.0347},
  {"name": "Kiffa", "lat": 16.6166, "lng": -11.4045},
  {"name": "Kaédi", "lat": 16.1465, "lng": -13.5069},
  {"name": "Rosso", "lat": 16.5135, "lng": -15.805},
  {"name": "Zouérat", "lat": 22.7187, "lng": -12.4822},
  {"name": "Atar", "lat": 20.5169, "lng": -13.0494},
  {"name": "Sélibaby", "lat": 15.1585, "lng": -12.1844},
  {"name": "Aïoun El Atrouss", "lat": 16.6667, "lng": -9.6167},
  {"name": "Tidjikja", "lat": 18.5564, "lng": -11.4271}
]