[
  {"name": "Auckland", "lat": -36.8485, "lng": 174.7633},
  {"name": "Wellington", "lat": -41.2865, "lng": 174.7762},
  {"name": "Christchurch", "lat": -43.5321, "lng": 172.6362},
  {"name": "Hamilton", "lat": -37.7870, "lng": 175.2793},
  {"name": "Tauranga", "lat": -37.6878, "lng": 176.1651},
  {"name": "Napier", "lat": -39.4928, "lng": 176.9120},
  {"name": "Dunedin", "lat": -45.8788, "lng": 170.5028},
  {"name": "Palmerston North", "lat": -40.3523, "lng": 175.6082},
  {"name": "Nelson", "lat": -41.2706, "lng": 173.2840},
  {"name": "Rotorua", "lat": -38.1368, "lng": 176.2497},
  {"name": "New Plymouth", "lat": -39.0556, "lng": 174.0752},
  {"name": "Whangārei", "lat": -35.7251, "lng": 174.3237},
  {"name": "Invercargill", "lat": -46.4132, "lng": 168.3538},
  {"name": "Queenstown", "lat": -45.0312, "lng": 168.6626},
  {"name": "Gisborne", "lat": -38.6623, "lng": 178.0176},
  {"name": "Taupō", "lat": -38.6857, "lng": 176.0702},
  {"name": "Hastings", "lat": -39.6358, "lng": 176.8280},
  {"name": "Whanganui", "lat": -39.9325, "lng": 175.0291},
  {"name": "Timaru", "lat": -44.3967, "lng": 171.2550},
  {"name": "Blenheim", "lat": -41.5134, "lng": 173.9612},
  {"name": "Masterton", "lat": -40.9597, "lng": 175.6575},
  {"name": "Greymouth", "lat": -42.4504, "lng": 171.2108},
  {"name": "Kaitaia", "lat": -35.1124, "lng": 173.2630},
  {"name": "Oamaru", "lat": -45.0975, "lng": 170.9705},
  {"name": "Wānaka", "lat": -44.7032, "lng": 169.1321},
  {"name": "Kaikōura", "lat": -42.4008, "lng": 173.6814},
  {"name": "Westport", "lat": -41.7545, "lng": 171.5983},
  {"name": "Hokitika", "lat": -42.7173, "lng": 170.9642},
  {"name": "Gore", "lat": -46.1028, "lng": 168.9436},
  {"name": "Picton", "lat": -41.2936, "lng": 174.0079},
  {"name": "Bluff", "lat": -46.6000, "lng": 168.3333},
  {"name": "Winton", "lat": -46.1438, "lng": 168.3258},
  {"name": "Lake Tekapo", "lat": -44.0050, "lng": 170.4775},
  {"name": "Rolleston", "lat": -43.5833, "lng": 172.3833},
  {"name": "Akaroa", "lat": -43.8042, "lng": 172.9667},
  {"name": "Rangiora", "lat": -43.3034, "lng": 172.5914},
  {"name": "Kerikeri", "lat": -35.2244, "lng": 173.9514},
  {"name": "Oban", "lat": -46.8970, "lng": 168.1263}
]