[
  {"name": "Paris", "lat": 48.8566, "lng": 2.3522},
  {"name": "Marseille", "lat": 43.2965, "lng": 5.3698},
  {"name": "Lyon", "lat": 45.764, "lng": 4.8357},
  {"name": "Toulouse", "lat": 43.6047, "lng": 1.4442},
  {"name": "Nice", "lat": 43.7102, "lng": 7.262},
  {"name": "Nantes", "lat": 47.2184, "lng": -1.5536},
  {"name": "Montpellier", "lat": 43.6108, "lng": 3.8767},
  {"name": "Strasbourg", "lat": 48.5734, "lng": 7.7521},
  {"name": "Bordeaux", "lat": 44.8378, "lng": -0.5792},
  {"name": "Lille", "lat": 50.6292, "lng": 3.0573}
]