[
  {"name": "Istanbul", "lat": 41.0082, "lng": 28.9784},
  {"name": "Ankara", "lat": 39.9334, "lng": 32.8597},
  {"name": "Izmir", "lat": 38.4192, "lng": 27.1287},
  {"name": "Bursa", "lat": 40.1828, "lng": 29.0665},
  {"name": "Adana", "lat": 37.0, "lng": 35.3213},
  {"name": "Gaziantep", "lat": 37.0662, "lng": 37.3833},
  {"name": "Konya", "lat": 37.8667, "lng": 32.4833},
  {"name": "Antalya", "lat": 36.8841, "lng": 30.7056},
  {"name": "Kayseri", "lat": 38.7312, "lng": 35.4787},
  {"name": "Mersin", "lat": 36.8, "lng": 34.6333}
]