[
  {"name": "Prague", "lat": 50.0755, "lng": 14.4378},
  {"name": "Brno", "lat": 49.1951, "lng": 16.6068},
  {"name": "Ostrava", "lat": 49.8209, "lng": 18.2625},
  {"name": "Plzeň", "lat": 49.7384, "lng": 13.3736},
  {"name": "Liberec", "lat": 50.7671, "lng": 15.0562},
  {"name": "Olomouc", "lat": 49.5938, "lng": 17.2509},
  {"name": "České Budějovice", "lat": 48.9745, "lng": 14.4743},
  {"name": "Hradec Králové", "lat": 50.2104, "lng": 15.8328},
  {"name": "Ústí nad Labem", "lat": 50.6607, "lng": 14.0323},
  {"name": "Pardubice", "lat": 50.0343, "lng": 15.7704},
  {"name": "Zlín", "lat": 49.2265, "lng": 17.6625},
  {"name": "Most", "lat": 50.5030, "lng": 13.6362},
  {"name": "Jihlava", "lat": 49.3961, "lng": 15.5912},
  {"name": "Kladno", "lat": 50.1473, "lng": 14.1029},
  {"name": "Mladá Boleslav", "lat": 50.4114, "lng": 14.9032},
  {"name": "Karlovy Vary", "lat": 50.2327, "lng": 12.8712},
  {"name": "Český Krumlov", "lat": 48.8122, "lng": 14.3123}
]