[
  {"name": "Budapest", "lat": 47.4979, "lng": 19.0402},
  {"name": "Debrecen", "lat": 47.5316, "lng": 21.6273},
  {"name": "Szeged", "lat": 46.2530, "lng": 20.1414},
  {"name": "Miskolc", "lat": 48.1035, "lng": 20.7784},
  {"name": "Pécs", "lat": 46.0727, "lng": 18.2323},
  {"name": "Győr", "lat": 47.6875, "lng": 17.6504},
  {"name": "Nyíregyháza", "lat": 47.9554, "lng": 21.7167},
  {"name": "Kecskemét", "lat": 46.9062, "lng": 19.6913},
  {"name": "Székesfehérvár", "lat": 47.1899, "lng": 18.4103},
  {"name": "Szombathely", "lat": 47.2307, "lng": 16.6218},
  {"name": "Szolnok", "lat": 47.1735, "lng": 20.1947},
  {"name": "Tatabánya", "lat": 47.5794, "lng": 18.3933},
  {"name": "Kaposvár", "lat": 46.3593, "lng": 17.7886},
  {"name": "Érd", "lat": 47.3804, "lng": 18.9139},
  {"name": "Veszprém", "lat": 47.0928, "lng": 17.9135},
  {"name": "Békéscsaba", "lat": 46.6800, "lng": 21.0850},
  {"name": "Zalaegerszeg", "lat": 46.8400, "lng": 16.8439},
  {"name": "Eger", "lat": 47.9026, "lng": 20.3733},
  {"name": "Nagykanizsa", "lat": 46.4590, "lng": 16.9896},
  {"name": "Dunaújváros", "lat": 46.9619, "lng": 18.9355},
  {"name": "Hódmezővásárhely", "lat": 46.4173, "lng": 20.3207},
  {"name": "Baja", "lat": 46.1805, "lng": 18.9490},
  {"name": "Salgótarján", "lat": 48.0999, "lng": 19.8050},
  {"name": "Ózd", "lat": 48.2185, "lng": 20.2882},
  {"name": "Szekszárd", "lat": 46.3474, "lng": 18.7062},
  {"name": "Vác", "lat": 47.7816, "lng": 19.1362},
  {"name": "Pápa", "lat": 47.3298, "lng": 17.4668},
  {"name": "Gyöngyös", "lat": 47.7818, "lng": 19.9276},
  {"name": "Kiskunfélegyháza", "lat": 46.7126, "lng": 19.8445},
  {"name": "Hajdúböszörmény", "lat": 47.6698, "lng": 21.5098},
  {"name": "Esztergom", "lat": 47.7972, "lng": 18.7394},
  {"name": "Kiskunhalas", "lat": 46.4316, "lng": 19.4875},
  {"name": "Orosháza", "lat": 46.5684, "lng": 20.6554},
  {"name": "Jászberény", "lat": 47.5029, "lng": 19.9136},
  {"name": "Szentendre", "lat": 47.6694, "lng": 19.0760},
  {"name": "Siófok", "lat": 46.9041, "lng": 18.0580},
  {"name": "Gödöllő", "lat": 47.5966, "lng": 19.3484},
  {"name": "Kazincbarcika", "lat": 48.2529, "lng": 20.6254},
  {"name": "Budaörs", "lat": 47.4618, "lng": 18.9584},
  {"name": "Keszthely", "lat": 46.7681, "lng": 17.2432},
  {"name": "Vecsés", "lat": 47.4111, "lng": 19.2618},
  {"name": "Hajdúszoboszló", "lat": 47.4475, "lng": 21.3934},
  {"name": "Mezőtúr", "lat": 47.0000, "lng": 20.6167},
  {"name": "Karcag", "lat": 47.3150, "lng": 20.9322},
  {"name": "Balmazújváros", "lat": 47.6111, "lng": 21.3444},
  {"name": "Paks", "lat": 46.6256, "lng": 18.8601},
  {"name": "Makó", "lat": 46.2165, "lng": 20.4786},
  {"name": "Csongrád", "lat": 46.7093, "lng": 20.1420},
  {"name": "Szarvas", "lat": 46.8617, "lng": 20.5486},
  {"name": "Békés", "lat": 46.7766, "lng": 21.1275},
  {"name": "Kalocsa", "lat": 46.5284, "lng": 18.9760},
  {"name": "Mátészalka", "lat": 47.9525, "lng": 22.3168},
  {"name": "Kisvárda", "lat": 48.2255, "lng": 22.0811},
  {"name": "Mezőkövesd", "lat": 47.8115, "lng": 20.5739},
  {"name": "Tiszaújváros", "lat": 47.9238, "lng": 21.0506},
  {"name": "Sátoraljaújhely", "lat": 48.3942, "lng": 21.6588},
  {"name": "Sárospatak", "lat": 48.3193, "lng": 21.5658},
  {"name": "Tiszafüred", "lat": 47.6167, "lng": 20.7667},
  {"name": "Berettyóújfalu", "lat": 47.2183, "lng": 21.5433},
  {"name": "Tolna", "lat": 46.4258, "lng": 18.7840},
  {"name": "Lenti", "lat": 46.6247, "lng": 16.5385},
  {"name": "Körmend", "lat": 47.0125, "lng": 16.6062},
  {"name": "Kőszeg", "lat": 47.3892, "lng": 16.5414},
  {"name": "Dunakeszi", "lat": 47.6322, "lng": 19.1389},
  {"name": "Mosonmagyaróvár", "lat": 47.8667, "lng": 17.2667},
  {"name": "Ajka", "lat": 47.1061, "lng": 17.5519},
  {"name": "Fót", "lat": 47.6094, "lng": 19.1919},
  {"name": "Göd", "lat": 47.6892, "lng": 19.1350},
  {"name": "Komló", "lat": 46.1928, "lng": 18.2636},
  {"name": "Veresegyház", "lat": 47.6531, "lng": 19.2844},
  {"name": "Tapolca", "lat": 46.8833, "lng": 17.4333},
  {"name": "Szigetvár", "lat": 46.0483, "lng": 17.8014},
  {"name": "Nyírbátor", "lat": 47.8333, "lng": 22.1333},
  {"name": "Csömör", "lat": 47.5458, "lng": 19.2239},
  {"name": "Szeghalom", "lat": 47.0239, "lng": 21.1667},
  {"name": "Mogyoród", "lat": 47.6006, "lng": 19.2506},
  {"name": "Tokaj", "lat": 48.1167, "lng": 21.4167},
  {"name": "Sződliget", "lat": 47.7303, "lng": 19.1417},
  {"name": "Verőce", "lat": 47.8286, "lng": 19.0342},
  {"name": "Szob", "lat": 47.8175, "lng": 18.8672},
  {"name": "Kosd", "lat": 47.8106, "lng": 19.1764},
  {"name": "Penc", "lat": 47.8000, "lng": 19.2667},
  {"name": "Rád", "lat": 47.7886, "lng": 19.2133},
  {"name": "Csörög", "lat": 47.7478, "lng": 19.1869},
  {"name": "Nógrád", "lat": 47.9044, "lng": 19.0492}
]