[
  {"name": "Nairobi", "lat": -1.2864, "lng": 36.8172},
  {"name": "Mombasa", "lat": -4.0500, "lng": 39.6667},
  {"name": "Nakuru", "lat": -0.3000, "lng": 36.0667},
  {"name": "Kisumu", "lat": -0.0833, "lng": 34.7667},
  {"name": "Eldoret", "lat": 0.5167, "lng": 35.2833},
  {"name": "Garissa", "lat": -0.4569, "lng": 39.6583},
  {"name": "Kisii", "lat": -0.6833, "lng": 34.7667},
  {"name": "Naivasha", "lat": -0.7140, "lng": 36.4330},
  {"name": "Kitale", "lat": 1.0167, "lng": 35.0000},
  {"name": "Wajir", "lat": 1.7500, "lng": 40.0500},
  {"name": "Embu", "lat": -0.5389, "lng": 37.4583},
  {"name": "Thika", "lat": -1.0396, "lng": 37.0900},
  {"name": "Malindi", "lat": -3.2236, "lng": 40.1300},
  {"name": "Kakamega", "lat": 0.2822, "lng": 34.7540},
  {"name": "Meru", "lat": 0.0500, "lng": 37.6500},
  {"name": "Machakos", "lat": -1.5167, "lng": 37.2667},
  {"name": "Bungoma", "lat": 0.5667, "lng": 34.5667},
  {"name": "Kiambu", "lat": -1.1667, "lng": 36.8167},
  {"name": "Nyeri", "lat": -0.4167, "lng": 36.9500},
  {"name": "Lodwar", "lat": 3.1167, "lng": 35.6000},
  {"name": "Migori", "lat": -1.0667, "lng": 34.4667},
  {"name": "Narok", "lat": -1.0833, "lng": 35.8667},
  {"name": "Kericho", "lat": -0.3692, "lng": 35.2839},
  {"name": "Voi", "lat": -3.3917, "lng": 38.5639},
  {"name": "Isiolo", "lat": 0.3500, "lng": 37.5833},
  {"name": "Homa Bay", "lat": -0.5167, "lng": 34.4500},
  {"name": "Nanyuki", "lat": 0.0167, "lng": 37.0667},
  {"name": "Marsabit", "lat": 2.3333, "lng": 37.9833},
  {"name": "Kilifi", "lat": -3.6333, "lng": 39.8500},
  {"name": "Lamu", "lat": -2.2694, "lng": 40.9022},
  {"name": "Kitui", "lat": -1.3667, "lng": 38.0167},
  {"name": "Kajiado", "lat": -1.8500, "lng": 36.7833},
  {"name": "Athi River", "lat": -1.4500, "lng": 36.9833},
  {"name": "Ruiru", "lat": -1.1483, "lng": 36.9604},
  {"name": "Ukunda", "lat": -4.2875, "lng": 39.5661},
  {"name": "Bomet", "lat": -0.7833, "lng": 35.3500},
  {"name": "Dadaab", "lat": 0.0582, "lng": 40.3181},
  {"name": "Sololo", "lat": 3.5633, "lng": 38.6437}
]