[
  {"name": "Niamey", "lat": 13.5137, "lng": 2.1098},
  {"name": "Zinder", "lat": 13.8044, "lng": 8.9837},
  {"name": "Maradi", "lat": 13.5, "lng": 7.1017},
  {"name": "Agadez", "lat": 16.9733, "lng": 7.9911},
  {"name": "Tahoua", "lat": 14.8888, "lng": 5.2692},
  {"name": "Dosso", "lat": 13.049, "lng": 3.1937},
  {"name": "Birni N'Konni", "lat": 13.7956, "lng": 5.2503},
  {"name": "Tessaoua", "lat": 13.7547, "lng": 7.9874},
  {"name": "Gaya", "lat": 11.8844, "lng": 3.4492},
  {"name": "Dogondoutchi", "lat": 13.6393, "lng": 4.0287}
]