[
  {"name": "Bucharest", "lat": 44.4268, "lng": 26.1025},
  {"name": "Cluj-Napoca", "lat": 46.7712, "lng": 23.6236},
  {"name": "Timișoara", "lat": 45.7489, "lng": 21.2087},
  {"name": "Iași", "lat": 47.1585, "lng": 27.6014},
  {"name": "Constanța", "lat": 44.1733, "lng": 28.6383},
  {"name": "Craiova", "lat": 44.3302, "lng": 23.7949},
  {"name": "Brașov", "lat": 45.6427, "lng": 25.5887},
  {"name": "Galați", "lat": 45.4353, "lng": 28.0080},
  {"name": "Ploiești", "lat": 44.9367, "lng": 26.0125},
  {"name": "Oradea", "lat": 47.0465, "lng": 21.9189},
  {"name": "Brăila", "lat": 45.2692, "lng": 27.9575},
  {"name": "Arad", "lat": 46.1866, "lng": 21.3123},
  {"name": "Pitești", "lat": 44.8565, "lng": 24.8697},
  {"name": "Sibiu", "lat": 45.7983, "lng": 24.1256},
  {"name": "Bacău", "lat": 46.5670, "lng": 26.9146},
  {"name": "Târgu Mureș", "lat": 46.5424, "lng": 24.5575},
  {"name": "Baia Mare", "lat": 47.6533, "lng": 23.5795},
  {"name": "Buzău", "lat": 45.1517, "lng": 26.8169},
  {"name": "Satu Mare", "lat": 47.7900, "lng": 22.8900},
  {"name": "Râmnicu Vâlcea", "lat": 45.1042, "lng": 24.3644},
  {"name": "Drobeta-Turnu Severin", "lat": 44.6319, "lng": 22.6561},
  {"name": "Suceava", "lat": 47.6514, "lng": 26.2556},
  {"name": "Piatra Neamț", "lat": 46.9275, "lng": 26.3708},
  {"name": "Târgu Jiu", "lat": 45.0333, "lng": 23.2833},
  {"name": "Târgoviște", "lat": 44.9244, "lng": 25.4572},
  {"name": "Focșani", "lat": 45.6947, "lng": 27.1867},
  {"name": "Bistrița", "lat": 47.1333, "lng": 24.5000},
  {"name": "Tulcea", "lat": 45.1797, "lng": 28.8028},
  {"name": "Alba Iulia", "lat": 46.0667, "lng": 23.5833},
  {"name": "Giurgiu", "lat": 43.9000, "lng": 25.9667},
  {"name": "Deva", "lat": 45.8833, "lng": 22.9000},
  {"name": "Hunedoara", "lat": 45.7500, "lng": 22.9000},
  {"name": "Zalău", "lat": 47.1833, "lng": 23.0500},
  {"name": "Sfântu Gheorghe", "lat": 45.8667, "lng": 25.7833},
  {"name": "Bârlad", "lat": 46.2275, "lng": 27.6681},
  {"name": "Vaslui", "lat": 46.6333, "lng": 27.7333},
  {"name": "Sighișoara", "lat": 46.2197, "lng": 24.7964}
]