[
  {"name": "Bratislava", "lat": 48.1486, "lng": 17.1077},
  {"name": "Košice", "lat": 48.7164, "lng": 21.2611},
  {"name": "Prešov", "lat": 48.9984, "lng": 21.2339},
  {"name": "Žilina", "lat": 49.2232, "lng": 18.7394},
  {"name": "Nitra", "lat": 48.3099, "lng": 18.0801},
  {"name": "Banská Bystrica", "lat": 48.7306, "lng": 19.1532},
  {"name": "Trnava", "lat": 48.3709, "lng": 17.5833},
  {"name": "Trenčín", "lat": 48.8945, "lng": 18.0444},
  {"name": "Poprad", "lat": 49.0560, "lng": 20.3008},
  {"name": "Komárno", "lat": 47.7635, "lng": 18.1226}
]