[
  {"name": "Ljubljana", "lat": 46.0569, "lng": 14.5058},
  {"name": "Maribor", "lat": 46.5547, "lng": 15.6459},
  {"name": "Kranj", "lat": 46.2417, "lng": 14.3536},
  {"name": "Celje", "lat": 46.2333, "lng": 15.2667},
  {"name": "Koper", "lat": 45.5469, "lng": 13.7294},
  {"name": "Novo Mesto", "lat": 45.8039, "lng": 15.1689},
  {"name": "Velenje", "lat": 46.3636, "lng": 15.1114},
  {"name": "Nova Gorica", "lat": 45.9558, "lng": 13.6486},
  {"name": "Kr≈°ko", "lat": 45.9611, "lng": 15.4858},
  {"name": "Ptuj", "lat": 46.42, "lng": 15.87}
]