[
  {"name": "Madrid", "lat": 40.4168, "lng": -3.7038},
  {"name": "Barcelona", "lat": 41.3851, "lng": 2.1734},
  {"name": "Valencia", "lat": 39.4699, "lng": -0.3774},
  {"name": "Seville", "lat": 37.3891, "lng": -5.9845},
  {"name": "Zaragoza", "lat": 41.6497, "lng": -0.8877},
  {"name": "Málaga", "lat": 36.7213, "lng": -4.4214},
  {"name": "Murcia", "lat": 37.9922, "lng": -1.1307},
  {"name": "Palma de Mallorca", "lat": 39.5694, "lng": 2.6502},
  {"name": "Las Palmas de Gran Canaria", "lat": 28.1235, "lng": -15.4363},
  {"name": "Bilbao", "lat": 43.2630, "lng": -2.9350},
  {"name": "Alicante", "lat": 38.3460, "lng": -0.4907},
  {"name": "Córdoba", "lat": 37.8882, "lng": -4.7794},
  {"name": "Valladolid", "lat": 41.6523, "lng": -4.7245},
  {"name": "Vigo", "lat": 42.2406, "lng": -8.7207},
  {"name": "Gijón", "lat": 43.5322, "lng": -5.6611},
  {"name": "L'Hospitalet de Llobregat", "lat": 41.3596, "lng": 2.0998},
  {"name": "Vitoria-Gasteiz", "lat": 42.8467, "lng": -2.6716},
  {"name": "A Coruña", "lat": 43.3623, "lng": -8.4115},
  {"name": "Granada", "lat": 37.1773, "lng": -3.5986},
  {"name": "Elx / Elche", "lat": 38.2669, "lng": -0.6984},
  {"name": "Oviedo", "lat": 43.3619, "lng": -5.8494},
  {"name": "Badalona", "lat": 41.4500, "lng": 2.2474},
  {"name": "Terrassa", "lat": 41.5667, "lng": 2.0167},
  {"name": "Cartagena", "lat": 37.6051, "lng": -0.9862},
  {"name": "Jerez de la Frontera", "lat": 36.6850, "lng": -6.1261},
  {"name": "Sabadell", "lat": 41.5483, "lng": 2.1075},
  {"name": "Santa Cruz de Tenerife", "lat": 28.4636, "lng": -16.2518},
  {"name": "Pamplona", "lat": 42.8125, "lng": -1.6458},
  {"name": "Almería", "lat": 36.8340, "lng": -2.4637},
  {"name": "Donostia / San Sebastián", "lat": 43.3183, "lng": -1.9812},
  {"name": "Getafe", "lat": 40.3083, "lng": -3.7327},
  {"name": "Burgos", "lat": 42.3439, "lng": -3.6969},
  {"name": "Santander", "lat": 43.4623, "lng": -3.8099},
  {"name": "Albacete", "lat": 38.9942, "lng": -1.8564},
  {"name": "Castellón de la Plana", "lat": 39.9864, "lng": -0.0369},
  {"name": "San Cristóbal de La Laguna", "lat": 28.4872, "lng": -16.3138},
  {"name": "Logroño", "lat": 42.4627, "lng": -2.4450},
  {"name": "Badajoz", "lat": 38.8794, "lng": -6.9706},
  {"name": "Salamanca", "lat": 40.9701, "lng": -5.6635},
  {"name": "Huelva", "lat": 37.2614, "lng": -6.9447},
  {"name": "Lleida", "lat": 41.6167, "lng": 0.6222},
  {"name": "Marbella", "lat": 36.5161, "lng": -4.8858},
  {"name": "Tarragona", "lat": 41.1189, "lng": 1.2445},
  {"name": "Dos Hermanas", "lat": 37.2833, "lng": -5.9167},
  {"name": "León", "lat": 42.5987, "lng": -5.5671},
  {"name": "Torrejón de Ardoz", "lat": 40.4554, "lng": -3.4697},
  {"name": "Mataró", "lat": 41.5333, "lng": 2.4500},
  {"name": "Móstoles", "lat": 40.3235, "lng": -3.8656},
  {"name": "Cádiz", "lat": 36.5271, "lng": -6.2886},
  {"name": "Fuenlabrada", "lat": 40.2842, "lng": -3.7942},
  {"name": "Alcorcón", "lat": 40.3458, "lng": -3.8249},
  {"name": "Algeciras", "lat": 36.1333, "lng": -5.4500},
  {"name": "Santa Coloma de Gramenet", "lat": 41.4500, "lng": 2.2167},
  {"name": "Jaén", "lat": 37.7796, "lng": -3.7849},
  {"name": "Leganés", "lat": 40.3283, "lng": -3.7667},
  {"name": "Alcobendas", "lat": 40.5333, "lng": -3.6333},
  {"name": "Ourense", "lat": 42.3367, "lng": -7.8641},
  {"name": "Reus", "lat": 41.1498, "lng": 1.1983},
  {"name": "Lugo", "lat": 43.0121, "lng": -7.5558},
  {"name": "Girona", "lat": 41.9794, "lng": 2.8214},
  {"name": "Cáceres", "lat": 39.4753, "lng": -6.3722},
  {"name": "Santiago de Compostela", "lat": 42.8782, "lng": -8.5448},
  {"name": "Ceuta", "lat": 35.8894, "lng": -5.3213},
  {"name": "Melilla", "lat": 35.2923, "lng": -2.9381},
  {"name": "Toledo", "lat": 39.8628, "lng": -4.0273},
  {"name": "Pontevedra", "lat": 42.4310, "lng": -8.6444},
  {"name": "Ciudad Real", "lat": 38.9848, "lng": -3.9274},
  {"name": "Zamora", "lat": 41.5033, "lng": -5.7463},
  {"name": "Segovia", "lat": 40.9481, "lng": -4.1184},
  {"name": "Soria", "lat": 41.7631, "lng": -2.4649},
  {"name": "Huesca", "lat": 42.1362, "lng": -0.4087},
  {"name": "Cuenca", "lat": 40.0704, "lng": -2.1374},
  {"name": "Teruel", "lat": 40.3456, "lng": -1.1065},
  {"name": "Ávila", "lat": 40.6558, "lng": -4.6977},
  {"name": "Palencia", "lat": 42.0095, "lng": -4.5241},
  {"name": "Ibiza / Eivissa", "lat": 38.9067, "lng": 1.4206},
  {"name": "Mérida", "lat": 38.9161, "lng": -6.3437},
  {"name": "Guadalajara", "lat": 40.6325, "lng": -3.1608},
  {"name": "Ronda", "lat": 36.7423, "lng": -5.1671},
  {"name": "Tarifa", "lat": 36.0127, "lng": -5.6029},
  {"name": "La Línea de la Concepción", "lat": 36.1611, "lng": -5.3486},
  {"name": "Badalona", "lat": 41.4500, "lng": 2.2474},
  {"name": "Vic", "lat": 41.9301, "lng": 2.2548},
  {"name": "Plasencia", "lat": 40.0294, "lng": -6.0924},
  {"name": "Linares", "lat": 38.0944, "lng": -3.6361},
  {"name": "Arrecife", "lat": 28.9630, "lng": -13.5477},
  {"name": "Puerto del Rosario", "lat": 28.5004, "lng": -13.8627},
  {"name": "Maspalomas", "lat": 27.7606, "lng": -15.5860},
  {"name": "Puerto de la Cruz", "lat": 28.4167, "lng": -16.5500},
  {"name": "Santa Cruz de La Palma", "lat": 28.6833, "lng": -17.7667},
  {"name": "San Sebastián de La Gomera", "lat": 28.0917, "lng": -17.1133}
]