[
  {"name": "Stockholm", "lat": 59.3293, "lng": 18.0686},
  {"name": "Göteborg", "lat": 57.7089, "lng": 11.9746},
  {"name": "Malmö", "lat": 55.6050, "lng": 13.0038},
  {"name": "Uppsala", "lat": 59.8586, "lng": 17.6389},
  {"name": "Västerås", "lat": 59.6110, "lng": 16.5448},
  {"name": "Örebro", "lat": 59.2741, "lng": 15.2066},
  {"name": "Linköping", "lat": 58.4108, "lng": 15.6214},
  {"name": "Helsingborg", "lat": 56.0465, "lng": 12.6945},
  {"name": "Jönköping", "lat": 57.7826, "lng": 14.1618},
  {"name": "Norrköping", "lat": 58.5877, "lng": 16.1924},
  {"name": "Lund", "lat": 55.7047, "lng": 13.1910},
  {"name": "Umeå", "lat": 63.8258, "lng": 20.2630},
  {"name": "Gävle", "lat": 60.6749, "lng": 17.1413},
  {"name": "Karlstad", "lat": 59.4022, "lng": 13.5115},
  {"name": "Växjö", "lat": 56.8790, "lng": 14.8059},
  {"name": "Halmstad", "lat": 56.6745, "lng": 12.8578},
  {"name": "Sundsvall", "lat": 62.3908, "lng": 17.3069},
  {"name": "Luleå", "lat": 65.5848, "lng": 22.1567},
  {"name": "Östersund", "lat": 63.1767, "lng": 14.6361},
  {"name": "Falun", "lat": 60.6044, "lng": 15.6265},
  {"name": "Kalmar", "lat": 56.6616, "lng": 16.3616},
  {"name": "Skövde", "lat": 58.3903, "lng": 13.8481},
  {"name": "Kristianstad", "lat": 56.0294, "lng": 14.1567},
  {"name": "Visby", "lat": 57.6348, "lng": 18.2948},
  {"name": "Haparanda", "lat": 65.8340, "lng": 24.1332},
  {"name": "Åre", "lat": 63.3990, "lng": 13.0815},
  {"name": "Mora", "lat": 61.0046, "lng": 14.5353},
  {"name": "Nyköping", "lat": 58.7530, "lng": 17.0093}
]