[
  {"name": "Kampala", "lat": 0.3136, "lng": 32.5811},
  {"name": "Gulu", "lat": 2.7746, "lng": 32.2990},
  {"name": "Lira", "lat": 2.2499, "lng": 32.8999},
  {"name": "Mbale", "lat": 1.0821, "lng": 34.1750},
  {"name": "Entebbe", "lat": 0.0500, "lng": 32.4600}
]