[
  {"name": "London", "lat": 51.5074, "lng": -0.1278},
  {"name": "Birmingham", "lat": 52.4862, "lng": -1.8904},
  {"name": "Manchester", "lat": 53.4808, "lng": -2.2426},
  {"name": "Liverpool", "lat": 53.4084, "lng": -2.9916},
  {"name": "Leeds", "lat": 53.8008, "lng": -1.5491},
  {"name": "Sheffield", "lat": 53.3811, "lng": -1.4701},
  {"name": "Bristol", "lat": 51.4545, "lng": -2.5879},
  {"name": "Newcastle upon Tyne", "lat": 54.9783, "lng": -1.6178},
  {"name": "Sunderland", "lat": 54.9069, "lng": -1.3838},
  {"name": "Nottingham", "lat": 52.9548, "lng": -1.1581},
  {"name": "Southampton", "lat": 50.9097, "lng": -1.4044},
  {"name": "Portsmouth", "lat": 50.8198, "lng": -1.0880},
  {"name": "Leicester", "lat": 52.6369, "lng": -1.1398},
  {"name": "Coventry", "lat": 52.4068, "lng": -1.5197},
  {"name": "Bradford", "lat": 53.7928, "lng": -1.7513},
  {"name": "Stratford-upon-Avon", "lat": 52.1928, "lng": -1.7064},
  {"name": "Plymouth", "lat": 50.3755, "lng": -4.1427},
  {"name": "Stoke-on-Trent", "lat": 53.0027, "lng": -2.1794},
  {"name": "Derby", "lat": 52.9225, "lng": -1.4746},
  {"name": "Reading", "lat": 51.4543, "lng": -0.9781},
  {"name": "Norwich", "lat": 52.6309, "lng": 1.2974},
  {"name": "York", "lat": 53.9590, "lng": -1.0815},
  {"name": "Carlisle", "lat": 54.8925, "lng": -2.9329},
  {"name": "Dover", "lat": 51.1279, "lng": 1.3134},
  {"name": "Edinburgh", "lat": 55.9533, "lng": -3.1883},
  {"name": "Glasgow", "lat": 55.8642, "lng": -4.2518},
  {"name": "Dudley", "lat": 52.5100, "lng": -2.0800},
  {"name": "Aberdeen", "lat": 57.1497, "lng": -2.0943},
  {"name": "Dundee", "lat": 56.4620, "lng": -2.9707},
  {"name": "Inverness", "lat": 57.4778, "lng": -4.2247},
  {"name": "Kirkwall", "lat": 58.9809, "lng": -2.9605},
  {"name": "Cardiff", "lat": 51.4816, "lng": -3.1791},
  {"name": "Swansea", "lat": 51.6214, "lng": -3.9436},
  {"name": "Newport", "lat": 51.5842, "lng": -2.9977},
  {"name": "Belfast", "lat": 54.5973, "lng": -5.9301},
  {"name": "Londonderry Derry", "lat": 55.0068, "lng": -7.3183},
  {"name": "Newry", "lat": 54.1759, "lng": -6.3361},
  {"name": "Douglas", "lat": 54.1496, "lng": -4.4806},
  {"name": "Dumfries", "lat": 55.0708, "lng": -3.6051},
  {"name": "Middlesbrough", "lat": 54.5742, "lng": -1.2350},
  {"name": "Stockton-on-Tees", "lat": 54.5639, "lng": -1.3177},
  {"name": "Whitby", "lat": 54.4858, "lng": -0.6206},
  {"name": "Scarborough", "lat": 54.2818, "lng": -0.4039},
  {"name": "Blackpool", "lat": 53.8175, "lng": -3.0356},
  {"name": "Preston", "lat": 53.7632, "lng": -2.7030},
  {"name": "Hull", "lat": 53.7676, "lng": -0.3274},
  {"name": "Leicester", "lat": 52.6368, "lng": -1.1397},
  {"name": "Wolverhampton", "lat": 52.5869, "lng": -2.1288},
  {"name": "Northampton", "lat": 52.2404, "lng": -0.9026},
  {"name": "Luton", "lat": 51.8786, "lng": -0.4147},
  {"name": "Ipswich", "lat": 52.0567, "lng": 1.1482},
  {"name": "Colchester", "lat": 51.8892, "lng": 0.9042},
  {"name": "Southend-on-Sea", "lat": 51.5356, "lng": 0.7136},
  {"name": "Watford", "lat": 51.6564, "lng": -0.3903},
  {"name": "Reading", "lat": 51.4542, "lng": -0.9781},
  {"name": "Bath", "lat": 51.3758, "lng": -2.3599},
  {"name": "Bristol", "lat": 51.4545, "lng": -2.5879},
  {"name": "Swansea", "lat": 51.6214, "lng": -3.9436},
  {"name": "Stoke-on-Trent", "lat": 53.0026, "lng": -2.1794},
  {"name": "Chester", "lat": 53.1933, "lng": -2.8930},
  {"name": "Newport", "lat": 51.5841, "lng": -2.9976},
  {"name": "Exeter", "lat": 50.7236, "lng": -3.5275},
  {"name": "Newquay", "lat": 50.4137, "lng": -5.0825},
  {"name": "Falmouth", "lat": 50.1525, "lng": -5.0662},
  {"name": "Torquay", "lat": 50.4619, "lng": -3.5253},
  {"name": "St Ives", "lat": 50.2116, "lng": -5.4809},
  {"name": "Poole", "lat": 50.7150, "lng": -1.9872},
  {"name": "Bournemouth", "lat": 50.7191, "lng": -1.8807},
  {"name": "Ramsey", "lat": 54.3228, "lng": -4.3844},
  {"name": "Worthing", "lat": 50.8123, "lng": -0.3708},
  {"name": "Eastbourne", "lat": 50.7680, "lng": 0.2845},
  {"name": "Canterbury", "lat": 51.2802, "lng": 1.0789},
  {"name": "Margate", "lat": 51.3813, "lng": 1.3862},
  {"name": "Cambridge", "lat": 52.2053, "lng": 0.1218},
  {"name": "Oxford", "lat": 51.7520, "lng": -1.2577},
  {"name": "Peterborough", "lat": 52.5739, "lng": -0.2508},
  {"name": "Gloucester", "lat": 51.8642, "lng": -2.2382},
  {"name": "Cheltenham", "lat": 51.9036, "lng": -2.0777},
  {"name": "Swindon", "lat": 51.5558, "lng": -1.7797},
  {"name": "Bolton", "lat": 53.5769, "lng": -2.4282},
  {"name": "Warrington", "lat": 53.3900, "lng": -2.5970},
  {"name": "Birkenhead", "lat": 53.3934, "lng": -3.0148},
  {"name": "Slough", "lat": 51.5105, "lng": -0.5950},
  {"name": "Chelmsford", "lat": 51.7356, "lng": 0.4685},
  {"name": "Worcester", "lat": 52.1920, "lng": -2.2200},
  {"name": "Stirling", "lat": 56.1165, "lng": -3.9369},
  {"name": "Bangor", "lat": 53.2274, "lng": -4.1293},
  {"name": "Hastings", "lat": 50.8542, "lng": 0.5734},
  {"name": "Portree", "lat": 57.4125, "lng": -6.1960},
  {"name": "Huddersfield", "lat": 53.6450, "lng": -1.7850},
  {"name": "Rotherham", "lat": 53.4300, "lng": -1.3570},
  {"name": "Blackburn", "lat": 53.7480, "lng": -2.4820},
  {"name": "Stockport", "lat": 53.4083, "lng": -2.1494},
  {"name": "Oldham", "lat": 53.5409, "lng": -2.1114},
  {"name": "Rochdale", "lat": 53.6136, "lng": -2.1610},
  {"name": "Weymouth", "lat": 50.6097, "lng": -2.4580},
  {"name": "Crawley", "lat": 51.1091, "lng": -0.1872},
  {"name": "Winchester", "lat": 51.0632, "lng": -1.3080},
  {"name": "Windsor", "lat": 51.4839, "lng": -0.6044},
  {"name": "Walsall", "lat": 52.5853, "lng": -1.9804}
]