[
  {"name":"Tokyo","lat":35.6895,"lng":139.6917},
  {"name":"Delhi","lat":28.7041,"lng":77.1025},
  {"name":"Shanghai","lat":31.2304,"lng":121.4737},
  {"name":"Sao Paulo","lat":-23.5505,"lng":-46.6333},
  {"name":"Mexico City","lat":19.4326,"lng":-99.1332},
  {"name":"Cairo","lat":30.0444,"lng":31.2357},
  {"name":"Mumbai","lat":19.0760,"lng":72.8777},
  {"name":"Beijing","lat":39.9042,"lng":116.4074},
  {"name":"Dhaka","lat":23.8103,"lng":90.4125},
  {"name":"Osaka","lat":34.6937,"lng":135.5023},
  {"name":"New York","lat":40.7128,"lng":-74.0060},
  {"name":"Karachi","lat":24.8607,"lng":67.0011},
  {"name":"Buenos Aires","lat":-34.6037,"lng":-58.3816},
  {"name":"Chongqing","lat":29.4316,"lng":106.9123},
  {"name":"Istanbul","lat":41.0082,"lng":28.9784},
  {"name":"Kolkata","lat":22.5726,"lng":88.3639},
  {"name":"Manila","lat":14.5995,"lng":120.9842},
  {"name":"Lagos","lat":6.5244,"lng":3.3792},
  {"name":"Rio de Janeiro","lat":-22.9068,"lng":-43.1729},
  {"name":"Tianjin","lat":39.3434,"lng":117.3616},
  {"name":"Kinshasa","lat":-4.4419,"lng":15.2663},
  {"name":"Guangzhou","lat":23.1291,"lng":113.2644},
  {"name":"Los Angeles","lat":34.0522,"lng":-118.2437},
  {"name":"Moscow","lat":55.7558,"lng":37.6173},
  {"name":"Shenzhen","lat":22.5431,"lng":114.0579},
  {"name":"Lahore","lat":31.5204,"lng":74.3587},
  {"name":"Bangalore","lat":12.9716,"lng":77.5946},
  {"name":"Paris","lat":48.8566,"lng":2.3522},
  {"name":"Bogota","lat":4.7110,"lng":-74.0721},
  {"name":"Jakarta","lat":-6.2088,"lng":106.8456},
  {"name":"Chennai","lat":13.0827,"lng":80.2707},
  {"name":"Lima","lat":-12.0464,"lng":-77.0428},
  {"name":"Bangkok","lat":13.7563,"lng":100.5018},
  {"name":"Seoul","lat":37.5665,"lng":126.9780},
  {"name":"Nagoya","lat":35.1815,"lng":136.9066},
  {"name":"Hyderabad","lat":17.3850,"lng":78.4867},
  {"name":"London","lat":51.5074,"lng":-0.1278},
  {"name":"Tehran","lat":35.6892,"lng":51.3890},
  {"name":"Ho Chi Minh City","lat":10.8231,"lng":106.6297},
  {"name":"Wuhan","lat":30.5928,"lng":114.3055},
  {"name":"Luanda","lat":-8.8390,"lng":13.2894},
  {"name":"Ahmedabad","lat":23.0225,"lng":72.5714},
  {"name":"Kuala Lumpur","lat":3.1390,"lng":101.6869},
  {"name":"Xi'an","lat":34.3416,"lng":108.9398},
  {"name":"Hong Kong","lat":22.3193,"lng":114.1694},
  {"name":"Dongguan","lat":23.0207,"lng":113.7518},
  {"name":"Hangzhou","lat":30.2741,"lng":120.1551},
  {"name":"Foshan","lat":23.0215,"lng":113.1214},
  {"name":"Shenyang","lat":41.8057,"lng":123.4328},
  {"name":"Riyadh","lat":24.7136,"lng":46.6753},
  {"name":"Baghdad","lat":33.3128,"lng":44.3615},
  {"name":"Santiago","lat":-33.4489,"lng":-70.6693},
  {"name":"Surat","lat":21.1702,"lng":72.8311},
  {"name":"Madrid","lat":40.4168,"lng":-3.7038},
  {"name":"Suzhou","lat":31.2989,"lng":120.5853},
  {"name":"Pune","lat":18.5204,"lng":73.8567},
  {"name":"Harbin","lat":45.8038,"lng":126.5349},
  {"name":"Houston","lat":29.7604,"lng":-95.3698},
  {"name":"Dallas","lat":32.7767,"lng":-96.7970},
  {"name":"Toronto","lat":43.6532,"lng":-79.3832},
  {"name":"Miami","lat":25.7617,"lng":-80.1918},
  {"name":"Atlanta","lat":33.7490,"lng":-84.3880},
  {"name":"Barcelona","lat":41.3851,"lng":2.1734},
  {"name":"Rome","lat":41.9028,"lng":12.4964},
  {"name":"Berlin","lat":52.5200,"lng":13.4050},
  {"name":"Singapore","lat":1.3521,"lng":103.8198},
  {"name":"Nagpur","lat":21.1458,"lng":79.0882},
  {"name":"Surabaya","lat":-7.2575,"lng":112.7521},
  {"name":"Saint Petersburg","lat":59.9311,"lng":30.3609},
  {"name":"Sydney","lat":-33.8688,"lng":151.2093},
  {"name":"Melbourne","lat":-37.8136,"lng":144.9631},
  {"name":"Cape Town","lat":-33.9249,"lng":18.4241},
  {"name":"Johannesburg","lat":-26.2041,"lng":28.0473},
  {"name":"Shijiazhuang","lat":38.0428,"lng":114.5149},
  {"name":"Fukuoka","lat":33.5904,"lng":130.4017},
  {"name":"Quezon City","lat":14.6760,"lng":121.0437},
  {"name":"Taipei","lat":25.0330,"lng":121.5654},
  {"name":"Kunming","lat":24.8801,"lng":102.8329},
  {"name":"Changsha","lat":28.2282,"lng":112.9388},
  {"name":"Zhengzhou","lat":34.7466,"lng":113.6254},
  {"name":"Shantou","lat":23.3716,"lng":116.6858},
  {"name":"Nanjing","lat":32.0603,"lng":118.7969},
  {"name":"Addis Ababa","lat":9.0300,"lng":38.7400},
  {"name":"Kabul","lat":34.5553,"lng":69.2075},
  {"name":"Abidjan","lat":5.6037,"lng":-0.1870},
  {"name":"Hanoi","lat":21.0278,"lng":105.8342},
  {"name":"Alexandria","lat":31.2001,"lng":29.9187},
  {"name":"Porto Alegre","lat":-30.0277,"lng":-51.2287},
  {"name":"Montreal","lat":45.5017,"lng":-73.5673},
  {"name":"Casablanca","lat":33.5731,"lng":-7.5898},
  {"name":"Recife","lat":-8.0539,"lng":-34.8817},
  {"name":"Medellin","lat":6.2442,"lng":-75.5812},
  {"name":"Curitiba","lat":-25.4278,"lng":-49.2731},
  {"name":"Kanpur","lat":26.4499,"lng":80.3319},
  {"name":"Patna","lat":25.5941,"lng":85.1376},
  {"name":"Kano","lat":12.0022,"lng":8.5919},
  {"name":"Dar es Salaam","lat":-6.7924,"lng":39.2083},
  {"name":"Yangon","lat":16.8409,"lng":96.1735},
  {"name":"Jeddah","lat":21.4858,"lng":39.1925},
  {"name":"Guadalajara","lat":20.6597,"lng":-103.3496}
]
